{"stops": [{"stop_id": "30023", "stop_name": "Terminal Boqueirão - 507 - Sítio Cercado (Horário) / 546 - S.Cercado / Boqueirão", "stop_lat": -25.516446747014, "stop_lon": -49.23098317791, "stop_sequence": 1}, {"stop_id": "25911", "stop_name": "Terminal Guadalupe - 507 - Sítio Cercado (Horário)", "stop_lat": -25.43249623228, "stop_lon": -49.265448074947, "stop_sequence": 1}, {"stop_id": "26253", "stop_name": "Terminal Pinheirinho - 507 - Sitio Cercado (Horário)", "stop_lat": -25.51216481452, "stop_lon": -49.294520978617, "stop_sequence": 1}, {"stop_id": "25823", "stop_name": "Estação Tubo Alto Boqueirão", "stop_lat": -25.524822749335, "stop_lon": -49.247543989706, "stop_sequence": 2}, {"stop_id": "26041", "stop_name": "Estação Tubo Paiol", "stop_lat": -25.448161149017, "stop_lon": -49.258066825944, "stop_sequence": 2}, {"stop_id": "91003", "stop_name": "Terminal Capão Raso - Sítio Cercado (H)", "stop_lat": -25.492371972689, "stop_lon": -49.293008771132, "stop_sequence": 2}, {"stop_id": "26255", "stop_name": "Terminal Sítio Cercado - 507 - Sítio Cercado (Horário)", "stop_lat": -25.534079003482, "stop_lon": -49.267110219499, "stop_sequence": 3}, {"stop_id": "26262", "stop_name": "Terminal Carmo - 505 - Boqueirão/C. Cívico / 507 - Sitio Cercado (Horário)", "stop_lat": -25.500857171801, "stop_lon": -49.237654831903, "stop_sequence": 3}, {"stop_id": "25719", "stop_name": "Estação Tubo Água Verde / Getúlio Vargas", "stop_lat": -25.449737563135, "stop_lon": -49.284600353044, "stop_sequence": 3}, {"stop_id": "25879", "stop_name": "Estação Tubo Xapinhal", "stop_lat": -25.535641637299, "stop_lon": -49.284699865867, "stop_sequence": 4}, {"stop_id": "25813", "stop_name": "Estação Tubo Westphalen / Getúlio Vargas", "stop_lat": -25.443506463375, "stop_lon": -49.268243834793, "stop_sequence": 4}, {"stop_id": "87501", "stop_name": "Estação Tubo Rebouças - Templo Maior", "stop_lat": -25.440723317814, "stop_lon": -49.261061990431, "stop_sequence": 5}, {"stop_id": "8727", "stop_name": "Estação Tubo Guadalupe", "stop_lat": -25.433655433387, "stop_lon": -49.263477908598, "stop_sequence": 6}]}