{"stops": [{"stop_id": "27584", "stop_name": "Terminal Centenário - 322 - Camargo", "stop_lat": -25.469153461653, "stop_lon": -49.208137016733, "stop_sequence": 1}, {"stop_id": "32635", "stop_name": "Terminal Oficinas - 322 - Camargo", "stop_lat": -25.45114, "stop_lon": -49.21508, "stop_sequence": 1}, {"stop_id": "32644", "stop_name": "Rua Amador Bueno, 806 - Cajuru", "stop_lat": -25.467141861457, "stop_lon": -49.205399968133, "stop_sequence": 2}, {"stop_id": "33112", "stop_name": "Rua Roraima, 1215 - Cajuru", "stop_lat": -25.453522187987, "stop_lon": -49.211603906746, "stop_sequence": 2}, {"stop_id": "32477", "stop_name": "Rua Amador Bueno, 1072 - Cajuru", "stop_lat": -25.46656605399, "stop_lon": -49.203063265047, "stop_sequence": 3}, {"stop_id": "33110", "stop_name": "Rua Natal, 1059 - Cajuru", "stop_lat": -25.45424, "stop_lon": -49.20913, "stop_sequence": 3}, {"stop_id": "33091", "stop_name": "Rua Arábia, 164 - Cajuru", "stop_lat": -25.46423430223, "stop_lon": -49.202810991402, "stop_sequence": 4}, {"stop_id": "33108", "stop_name": "Rua Natal, 1459 - Cajuru", "stop_lat": -25.45643, "stop_lon": -49.20835, "stop_sequence": 4}, {"stop_id": "33093", "stop_name": "Rua Fortaleza, 2196 - Cajuru", "stop_lat": -25.462768789164, "stop_lon": -49.203409038029, "stop_sequence": 5}, {"stop_id": "33105", "stop_name": "Rua Natal, 1769 - Cajuru", "stop_lat": -25.45900394563, "stop_lon": -49.207410612268, "stop_sequence": 5}, {"stop_id": "33102", "stop_name": "Rua Fortaleza,1913 - Cajuru", "stop_lat": -25.460297379642, "stop_lon": -49.204283351608, "stop_sequence": 6}, {"stop_id": "33104", "stop_name": "R. Natal, 2034 - Cajuru", "stop_lat": -25.461379831678, "stop_lon": -49.206521165677, "stop_sequence": 6}, {"stop_id": "33103", "stop_name": "Rua Niterói, 1176 - Cajuru", "stop_lat": -25.460479373748, "stop_lon": -49.206305976687, "stop_sequence": 7}, {"stop_id": "33101", "stop_name": "Rua Sebastião Marcos Luiz, 1246- Cajuru", "stop_lat": -25.461773810199, "stop_lon": -49.204473263894, "stop_sequence": 7}, {"stop_id": "33106", "stop_name": "Rua Natal, 1769 - Cajuru", "stop_lat": -25.458969143288, "stop_lon": -49.207292565641, "stop_sequence": 8}, {"stop_id": "33094", "stop_name": "Rua Fortaleza, 2196 - Cajuru", "stop_lat": -25.462749729096, "stop_lon": -49.203521836805, "stop_sequence": 8}, {"stop_id": "33107", "stop_name": "Rua Natal, 1459 - Cajuru", "stop_lat": -25.45643, "stop_lon": -49.20819, "stop_sequence": 9}, {"stop_id": "2874", "stop_name": "R. Arábia, 175 - Cajuru", "stop_lat": -25.464423820123, "stop_lon": -49.202896340124, "stop_sequence": 9}, {"stop_id": "33109", "stop_name": "Rua Natal, 1059 - Cajuru", "stop_lat": -25.453916111871, "stop_lon": -49.209106326389, "stop_sequence": 10}, {"stop_id": "32478", "stop_name": "Rua Amador Bueno, 1072 - Cajuru", "stop_lat": -25.466439773669, "stop_lon": -49.203044023314, "stop_sequence": 10}, {"stop_id": "33111", "stop_name": "Rua Roraima, 1215 - Cajuru", "stop_lat": -25.453446406531, "stop_lon": -49.21169524785, "stop_sequence": 11}, {"stop_id": "32466", "stop_name": "Rua Amador Bueno, 818 - Cajuru", "stop_lat": -25.467103231057, "stop_lon": -49.205643255849, "stop_sequence": 11}]}