{"stops": [{"stop_id": "30453", "stop_name": "Terminal Boa Vista - 224 - Cassiopéia", "stop_lat": -25.393337884661, "stop_lon": -49.240889387732, "stop_sequence": 1}, {"stop_id": "27150", "stop_name": "Rua José Merhy, 1250 - Boa Vista", "stop_lat": -25.391224635858, "stop_lon": -49.241196080717, "stop_sequence": 2}, {"stop_id": "48942", "stop_name": "Rua José Merhy, 1544 - Boa Vista", "stop_lat": -25.389109927012, "stop_lon": -49.23922598362, "stop_sequence": 3}, {"stop_id": "27133", "stop_name": "Rua Antônio Lago, 428 - Boa Vista", "stop_lat": -25.387083565788, "stop_lon": -49.241006019782, "stop_sequence": 4}, {"stop_id": "27134", "stop_name": "Rua Nossa Senhora de Nazaré, 1840 - Boa Vista", "stop_lat": -25.385879985642, "stop_lon": -49.241193985074, "stop_sequence": 5}, {"stop_id": "27135", "stop_name": "Rua Nossa Senhora de Nazaré, 2052 - Boa Vista", "stop_lat": -25.383864796104, "stop_lon": -49.239321235573, "stop_sequence": 6}, {"stop_id": "27136", "stop_name": "Rua Nossa Senhora de Nazaré, 2234 - Boa Vista", "stop_lat": -25.38205867882, "stop_lon": -49.238607212771, "stop_sequence": 7}, {"stop_id": "34559", "stop_name": "Rua Fernando de Noronha, 756 - Santa Candida", "stop_lat": -25.3801814295, "stop_lon": -49.237675357815, "stop_sequence": 8}, {"stop_id": "27137", "stop_name": "Rua Fernando de Noronha, 988 - Santa Candida", "stop_lat": -25.379527318923, "stop_lon": -49.24011096531, "stop_sequence": 9}, {"stop_id": "27138", "stop_name": "Rua Engenheiro Luiz Augusto Leão Fonseca, 37 - Santa Candida", "stop_lat": -25.378152753511, "stop_lon": -49.24164719504, "stop_sequence": 10}, {"stop_id": "27194", "stop_name": "Rua Engenheiro Luiz Augusto Leão Fonseca, 220 - Santa Candida", "stop_lat": -25.377257391692, "stop_lon": -49.240140194967, "stop_sequence": 11}, {"stop_id": "27195", "stop_name": "Rua Engenheiro Luís Augusto Leão Fonógrafo, 378 - Santa Candida", "stop_lat": -25.376404995938, "stop_lon": -49.238658710427, "stop_sequence": 12}, {"stop_id": "27140", "stop_name": "Rua Engenheiro Luís Augusto Leão Fonógrafo, 538 - Santa Candida", "stop_lat": -25.375624524366, "stop_lon": -49.237309586118, "stop_sequence": 13}, {"stop_id": "31817", "stop_name": "Rua Coronel Wallace Scott Murray, 986 - Santa Cândida, Curitiba - PR, 82640-170", "stop_lat": -25.375197766432, "stop_lon": -49.235466886473, "stop_sequence": 14}, {"stop_id": "27141", "stop_name": "Rua Coronel Wallace Scott Murrai, 721 - Santa Candida", "stop_lat": -25.37618984707, "stop_lon": -49.233691225621, "stop_sequence": 15}, {"stop_id": "27142", "stop_name": "Rua Coronel Wallace Scott Murrai, 437 - Santa Candida", "stop_lat": -25.378134864684, "stop_lon": -49.232016820709, "stop_sequence": 16}, {"stop_id": "27143", "stop_name": "Rua João Reboli, 545 - Santa Candida", "stop_lat": -25.379563622229, "stop_lon": -49.233931722588, "stop_sequence": 17}, {"stop_id": "27144", "stop_name": "Rua João Reboli, 309 - Santa Candida", "stop_lat": -25.380935131286, "stop_lon": -49.235909311107, "stop_sequence": 18}, {"stop_id": "31840", "stop_name": "Rua Fernando de Noronha, 505 - Santa Candida", "stop_lat": -25.381702025779, "stop_lon": -49.235737238667, "stop_sequence": 19}, {"stop_id": "27145", "stop_name": "Rua Maria Geronasso do Rosário, 85 - Boa Vista", "stop_lat": -25.382782813351, "stop_lon": -49.235803032233, "stop_sequence": 20}, {"stop_id": "27146", "stop_name": "Rua Des. Antônio Leopoldo dos Santos, 233 - Boa Vista", "stop_lat": -25.384614699883, "stop_lon": -49.237657700322, "stop_sequence": 21}, {"stop_id": "27147", "stop_name": "Rua Des. Antônio Leopoldo dos Santos, 77 - Boa Vista", "stop_lat": -25.386587929367, "stop_lon": -49.236024270355, "stop_sequence": 22}, {"stop_id": "27148", "stop_name": "Rua Jovino do Rosário, 1749 - Boa Vista", "stop_lat": -25.388208672689, "stop_lon": -49.237149525041, "stop_sequence": 23}, {"stop_id": "48941", "stop_name": "Rua José Merhy, 1533 - Boa Vista", "stop_lat": -25.389037232409, "stop_lon": -49.239349365234, "stop_sequence": 24}, {"stop_id": "25431", "stop_name": "Rua José Merhy, 1181 - Boa Vista", "stop_lat": -25.391113185867, "stop_lon": -49.241248341652, "stop_sequence": 25}]}