{"stops": [{"stop_id": "30671", "stop_name": "Rua Pastor Manoel Virgínio de Souza, 1082 - Capão da Imbuia", "stop_lat": -25.433486917715, "stop_lon": -49.209157408422, "stop_sequence": 1}, {"stop_id": "26342", "stop_name": "Praça Carlos Gomes - 386-Cajuru", "stop_lat": -25.432848650189, "stop_lon": -49.27027556414, "stop_sequence": 1}, {"stop_id": "30670", "stop_name": "Rua Pastor Manoel Virgínio de Souza, 855 - Capão da Imbuia", "stop_lat": -25.43608355378, "stop_lon": -49.210616530127, "stop_sequence": 2}, {"stop_id": "29922", "stop_name": "Rua José Loureiro, 274 - Centro", "stop_lat": -25.431968150347, "stop_lon": -49.267909855789, "stop_sequence": 2}, {"stop_id": "92407", "stop_name": "R. Eng. Alberto Monteiro de Carvalho, 593 - Capão da Imbuia, Curitiba - PR, 82810-280", "stop_lat": -25.435123834439, "stop_lon": -49.2131125196, "stop_sequence": 3}, {"stop_id": "30531", "stop_name": "Rua André de Barros, 929 - Centro", "stop_lat": -25.433101777563, "stop_lon": -49.264357269949, "stop_sequence": 3}, {"stop_id": "92408", "stop_name": "R. Eng. Alberto Monteiro de Carvalho, 201 - Capão da Imbuia, Curitiba - PR, 82810-280", "stop_lat": -25.433663132059, "stop_lon": -49.216372752521, "stop_sequence": 4}, {"stop_id": "30468", "stop_name": "Rua Nilo Cairo, 306 - Centro", "stop_lat": -25.43144735649, "stop_lon": -49.260449291414, "stop_sequence": 4}, {"stop_id": "30663", "stop_name": "Rua Prof. Nivaldo Braga, 1421 - Capão da Imbuia", "stop_lat": -25.434998399247, "stop_lon": -49.217971147246, "stop_sequence": 5}, {"stop_id": "30535", "stop_name": "Av. Senador Souza Naves, 2 - Alto da rua XV", "stop_lat": -25.430606814681, "stop_lon": -49.257014722771, "stop_sequence": 5}, {"stop_id": "30661", "stop_name": "Rua Prof. Nivaldo Braga, 1225 - Capão da Imbuia", "stop_lat": -25.437045166928, "stop_lon": -49.219117791599, "stop_sequence": 6}, {"stop_id": "30537", "stop_name": "Av. Visconde de Guarapuava, 9355 - Alto da XV", "stop_lat": -25.430890225687, "stop_lon": -49.253770590967, "stop_sequence": 6}, {"stop_id": "30659", "stop_name": "Rua Prof. Benedito Conceição, 325 - Capão da Imbuia", "stop_lat": -25.436529239417, "stop_lon": -49.221024842209, "stop_sequence": 7}, {"stop_id": "30538", "stop_name": "Av. Senador Souza Naves, 550 - Alto da Rua XV", "stop_lat": -25.431085221761, "stop_lon": -49.251450480169, "stop_sequence": 7}, {"stop_id": "30657", "stop_name": "Rua Otávio Schiavon, 364 - Capão da Imbuia", "stop_lat": -25.435743232931, "stop_lon": -49.22223317737, "stop_sequence": 8}, {"stop_id": "29130", "stop_name": "Av. Sen. Souza Naves, 837-899 - Alto da XV", "stop_lat": -25.43131627069, "stop_lon": -49.248765597553, "stop_sequence": 8}, {"stop_id": "30585", "stop_name": "Rua Suécia, 7574 - Tarumã", "stop_lat": -25.43324590248, "stop_lon": -49.223189384883, "stop_sequence": 9}, {"stop_id": "29131", "stop_name": "Av. Senador Souza Naves, 1082 - Cristo Rei", "stop_lat": -25.431466087779, "stop_lon": -49.246799504299, "stop_sequence": 9}, {"stop_id": "30584", "stop_name": "Rua Suécia, 465 - Tarumã", "stop_lat": -25.432958863607, "stop_lon": -49.225801856463, "stop_sequence": 10}, {"stop_id": "29132", "stop_name": "Av. Senador Souza Naves, 1242 - Cristo Rei", "stop_lat": -25.43163, "stop_lon": -49.24487, "stop_sequence": 10}, {"stop_id": "30568", "stop_name": "Rua Suécia, 197 - Tarumã", "stop_lat": -25.43269120227, "stop_lon": -49.228372753804, "stop_sequence": 11}, {"stop_id": "29149", "stop_name": "Av. Senador Souza Naves, 1710 - Cristo Rei", "stop_lat": -25.432, "stop_lon": -49.24134, "stop_sequence": 11}, {"stop_id": "30581", "stop_name": "Rua Antônio Simm, 691 - Capão da Imbuia", "stop_lat": -25.433881745649, "stop_lon": -49.229656861371, "stop_sequence": 12}, {"stop_id": "30567", "stop_name": "Av. Mal. Humberto de Alencar Castelo Branco, 602 - Jardim Social", "stop_lat": -25.432866817241, "stop_lon": -49.238288880533, "stop_sequence": 12}, {"stop_id": "30579", "stop_name": "Rua Governador Agamenon Magalhães, 713 - Cristo Rei", "stop_lat": -25.435619200732, "stop_lon": -49.231214554256, "stop_sequence": 13}, {"stop_id": "30566", "stop_name": "Av. Mal. Humberto de Alencar Castelo Branco, 954 - Jardim Social", "stop_lat": -25.434587830417, "stop_lon": -49.236723811573, "stop_sequence": 13}, {"stop_id": "3623", "stop_name": "Av. Nossa Senhora da Penha, 295 - Cristo Rei", "stop_lat": -25.438976914005, "stop_lon": -49.234727130059, "stop_sequence": 14}, {"stop_id": "91544", "stop_name": "Av. Nossa Sra. da Penha, 65 - Cristo Rei, Curitiba - PR, 80050-550", "stop_lat": -25.437033012252, "stop_lon": -49.235291593697, "stop_sequence": 14}, {"stop_id": "30206", "stop_name": "Av. Nossa Senhora da Penha, 29 - Cristo Rei", "stop_lat": -25.436876653866, "stop_lon": -49.235118509478, "stop_sequence": 15}, {"stop_id": "30577", "stop_name": "Av. Nossa Senhora da Penha, 266 - Cristo Rei", "stop_lat": -25.43891144963, "stop_lon": -49.234877110667, "stop_sequence": 15}, {"stop_id": "30207", "stop_name": "Av. Mal. Humberto de Alencar Castelo Branco, 793 - Jardim Social", "stop_lat": -25.434846838961, "stop_lon": -49.236298681444, "stop_sequence": 16}, {"stop_id": "30576", "stop_name": "Rua Urbano Lopes, 400 - Cristo Rei", "stop_lat": -25.440827356758, "stop_lon": -49.235338450617, "stop_sequence": 16}, {"stop_id": "89161", "stop_name": "Av. Mal. Humberto de Alencar Castelo Branco, 611", "stop_lat": -25.432350670086, "stop_lon": -49.23861236588, "stop_sequence": 17}, {"stop_id": "30580", "stop_name": "Rua Roberto Cichon, 550 - Cristo Rei", "stop_lat": -25.437240448384, "stop_lon": -49.230644584841, "stop_sequence": 17}, {"stop_id": "29906", "stop_name": "Av. Mal. Humberto de Alencar Castelo Branco, 197 - Jardim Social", "stop_lat": -25.429452401161, "stop_lon": -49.240590215868, "stop_sequence": 18}, {"stop_id": "48304", "stop_name": "R. Antônio Simm, 452 - Capão da Imbuia", "stop_lat": -25.435619434421, "stop_lon": -49.229293763638, "stop_sequence": 18}, {"stop_id": "30672", "stop_name": "Rua Reinaldino S. de Quadros, 1671- Alto da Rua XV", "stop_lat": -25.430685540027, "stop_lon": -49.240997911638, "stop_sequence": 19}, {"stop_id": "30582", "stop_name": "Rua Antônio Simm, 692 - Capão da Imbuia", "stop_lat": -25.43394109084, "stop_lon": -49.229539514726, "stop_sequence": 19}, {"stop_id": "30673", "stop_name": "Rua Reinaldino Schafemberg de Quadros, 1435 - Alto da Rua XV", "stop_lat": -25.430483276342, "stop_lon": -49.243559421247, "stop_sequence": 20}, {"stop_id": "30583", "stop_name": "Rua Suécia, 199 - Tarumã", "stop_lat": -25.43284743905, "stop_lon": -49.228068323081, "stop_sequence": 20}, {"stop_id": "30674", "stop_name": "Av. Sete de Setembro, 652-734 - Alto da XV", "stop_lat": -25.430198653215, "stop_lon": -49.247153581327, "stop_sequence": 21}, {"stop_id": "30569", "stop_name": "Rua Suécia, 463 - Tarumã", "stop_lat": -25.433070288061, "stop_lon": -49.22577101106, "stop_sequence": 21}, {"stop_id": "30675", "stop_name": "Rua Reinaldino Schafemberg de Quadros, 896 - Alto da Rua XV", "stop_lat": -25.430076325622, "stop_lon": -49.248702557034, "stop_sequence": 22}, {"stop_id": "30570", "stop_name": "Rua Suécia, 7572 - Tarumã", "stop_lat": -25.433367015723, "stop_lon": -49.223154516166, "stop_sequence": 22}, {"stop_id": "30676", "stop_name": "Rua Reinaldino Schafemberg de Quadros, 641 - Alto da Rua XV", "stop_lat": -25.4298377259, "stop_lon": -49.251386107153, "stop_sequence": 23}, {"stop_id": "30658", "stop_name": "Rua Otávio Schiavon, 366 - Capão da Imbuia", "stop_lat": -25.435722644094, "stop_lon": -49.222341806835, "stop_sequence": 23}, {"stop_id": "30677", "stop_name": "Rua Reinaldino Schafemberg de Quadros, 333 - Alto da Rua XV", "stop_lat": -25.429556734759, "stop_lon": -49.254640967793, "stop_sequence": 24}, {"stop_id": "30660", "stop_name": "Rua Prof. Benedito Conceição, 327 - Capão da Imbuia", "stop_lat": -25.436622494084, "stop_lon": -49.221083850807, "stop_sequence": 24}, {"stop_id": "30678", "stop_name": "Rua Reinaldino Schafemberg de Quadros, 50 - Alto da Rua XV", "stop_lat": -25.429355680351, "stop_lon": -49.25709787125, "stop_sequence": 25}, {"stop_id": "27562", "stop_name": "Rua Prof. Benedito Conceição, 587 - Capão da Imbuia", "stop_lat": -25.437633686344, "stop_lon": -49.218702159477, "stop_sequence": 25}, {"stop_id": "30681", "stop_name": "Rua Comendador Macedo, 264 - Centro", "stop_lat": -25.430552312488, "stop_lon": -49.261951328462, "stop_sequence": 26}, {"stop_id": "91944", "stop_name": "Rua Professora Olga Balster, 1898 - Capão da Imbuia, Curitiba - PR, 82810-160", "stop_lat": -25.437637476521, "stop_lon": -49.217265324916, "stop_sequence": 26}, {"stop_id": "28602", "stop_name": "Rua Conselheiro Laurindo, 341 - Centro", "stop_lat": -25.431282639826, "stop_lon": -49.264389456457, "stop_sequence": 27}, {"stop_id": "30666", "stop_name": "Rua Osmário de Lima, 352 - Capão da Imbuia", "stop_lat": -25.435804999419, "stop_lon": -49.214760543055, "stop_sequence": 27}, {"stop_id": "26376", "stop_name": "Rua Mal. Deodoro, 527 - Centro", "stop_lat": -25.430286486029, "stop_lon": -49.267224682014, "stop_sequence": 28}, {"stop_id": "30668", "stop_name": "Rua Osmário de Lima, 764 - Capão da Imbuia", "stop_lat": -25.436762981497, "stop_lon": -49.212601364798, "stop_sequence": 28}, {"stop_id": "26400", "stop_name": "Rua Mal. Deodoro, 314 - Centro", "stop_lat": -25.431247786293, "stop_lon": -49.269576114882, "stop_sequence": 29}, {"stop_id": "30669", "stop_name": "Rua Pastor Manoel Virgínio de Souza, 604 - Capão da Imbuia", "stop_lat": -25.43697371231, "stop_lon": -49.210942418522, "stop_sequence": 29}]}