{"stops": [{"stop_id": "568", "stop_name": "R. Dep. José Hoffmann, 80 - Vista Alegre", "stop_lat": -25.4086089, "stop_lon": -49.29986, "stop_sequence": 1}, {"stop_id": "581", "stop_name": "Praça Santos Andrade - 150 - C. da Música / Vista Alegre", "stop_lat": -25.428209687138, "stop_lon": -49.265846178539, "stop_sequence": 1}, {"stop_id": "42582", "stop_name": "R. Dep. João Ferreira Neves, 461 - Vista Alegre", "stop_lat": -25.407773637029, "stop_lon": -49.297842979431, "stop_sequence": 2}, {"stop_id": "26376", "stop_name": "Rua Mal. Deodoro, 527 - Centro", "stop_lat": -25.430286486029, "stop_lon": -49.267224682014, "stop_sequence": 2}, {"stop_id": "42584", "stop_name": "R. Dep. João Ferreira Neves, 4 - Vista Alegre", "stop_lat": -25.409013273534, "stop_lon": -49.296909570694, "stop_sequence": 3}, {"stop_id": "26400", "stop_name": "Rua Mal. Deodoro, 314 - Centro", "stop_lat": -25.431247786293, "stop_lon": -49.269576114882, "stop_sequence": 3}, {"stop_id": "42587", "stop_name": "R. Dep. João Ferreira Neves, 6 - Vista Alegre", "stop_lat": -25.410909062897, "stop_lon": -49.296587705612, "stop_sequence": 4}, {"stop_id": "26343", "stop_name": "Praça Tiradentes, 70 - Centro - 150 - Canal da Música / Vista Alegre (Sentido Vista Alegre)", "stop_lat": -25.429458629939, "stop_lon": -49.271108390039, "stop_sequence": 4}, {"stop_id": "26448", "stop_name": "R. Victório Viezzer, 810 - Vista Alegre", "stop_lat": -25.411621626364, "stop_lon": -49.294794149869, "stop_sequence": 5}, {"stop_id": "26796", "stop_name": "Rua Duque de Caxias, 155 - São Francisco", "stop_lat": -25.425880768114, "stop_lon": -49.273237735299, "stop_sequence": 5}, {"stop_id": "33072", "stop_name": "R. André Zanetti, 382 - Vista Alegre", "stop_lat": -25.411356340595, "stop_lon": -49.292004139881, "stop_sequence": 6}, {"stop_id": "26462", "stop_name": "Rua Inácio Lustosa, 434 - São Francisco", "stop_lat": -25.423648628482, "stop_lon": -49.273810148865, "stop_sequence": 6}, {"stop_id": "33071", "stop_name": "R. André Zanetti, 100 - Vista Alegre", "stop_lat": -25.413366392027, "stop_lon": -49.29079, "stop_sequence": 7}, {"stop_id": "42588", "stop_name": "Rua Quari, 1-41 - São Francisco", "stop_lat": -25.422102697856, "stop_lon": -49.27558735013, "stop_sequence": 7}, {"stop_id": "27743", "stop_name": "R. Dr. Roberto Barroso, 2065 - Vista Alegre", "stop_lat": -25.414484451367, "stop_lon": -49.288502515501, "stop_sequence": 8}, {"stop_id": "48501", "stop_name": "R. Solimões, 2 - São Francisco", "stop_lat": -25.420087774905, "stop_lon": -49.277305305004, "stop_sequence": 8}, {"stop_id": "27744", "stop_name": "R. Júlio Perneta, 651 - Mercês", "stop_lat": -25.416686613874, "stop_lon": -49.287577153391, "stop_sequence": 9}, {"stop_id": "48483", "stop_name": "R. Solimões, 270 - São Francisco", "stop_lat": -25.419672310199, "stop_lon": -49.27939273417, "stop_sequence": 9}, {"stop_id": "26413", "stop_name": "R. Júlio Perneta, 268 - Mercês", "stop_lat": -25.419845741573, "stop_lon": -49.28842802569, "stop_sequence": 10}, {"stop_id": "32792", "stop_name": "R. Dom Alberto Gonçalves, 256 - Mercês", "stop_lat": -25.419750929556, "stop_lon": -49.282769766865, "stop_sequence": 10}, {"stop_id": "26454", "stop_name": "R. Júlio Perneta, 47 - Mercês", "stop_lat": -25.42203017606, "stop_lon": -49.289019784832, "stop_sequence": 11}, {"stop_id": "32793", "stop_name": "R. Dom Alberto Gonçalves, 44 - Mercês", "stop_lat": -25.421716676263, "stop_lon": -49.28331842576, "stop_sequence": 11}, {"stop_id": "26455", "stop_name": "R. Júlia Wanderley, 322 - Mercês", "stop_lat": -25.423430413535, "stop_lon": -49.287646127345, "stop_sequence": 12}, {"stop_id": "32794", "stop_name": "Av. Manoel Ribas, 530 - Mercês", "stop_lat": -25.422354282858, "stop_lon": -49.284145743551, "stop_sequence": 12}, {"stop_id": "26900", "stop_name": "Av. Manoel Ribas, 531 - Mercês", "stop_lat": -25.422482678274, "stop_lon": -49.284327553297, "stop_sequence": 13}, {"stop_id": "32795", "stop_name": "Av. Manoel Ribas, 898 - Mercês", "stop_lat": -25.422197325377, "stop_lon": -49.288070641699, "stop_sequence": 13}, {"stop_id": "33154", "stop_name": "R. Tapajós, 290 - Mercês", "stop_lat": -25.420162140919, "stop_lon": -49.281326209822, "stop_sequence": 14}, {"stop_id": "32796", "stop_name": "Av. Manoel Ribas, 1054 - Mercês", "stop_lat": -25.422572451556, "stop_lon": -49.290002332506, "stop_sequence": 14}, {"stop_id": "48482", "stop_name": "R. Solimões, 257 - São Francisco", "stop_lat": -25.419749225784, "stop_lon": -49.279531538486, "stop_sequence": 15}, {"stop_id": "26430", "stop_name": "R. Profa. Rosa Saporski, 451 - Mercês", "stop_lat": -25.41978198258, "stop_lon": -49.289545556287, "stop_sequence": 15}, {"stop_id": "48481", "stop_name": "R. Solimões, 21 - São Francisco", "stop_lat": -25.420245239288, "stop_lon": -49.277171865106, "stop_sequence": 16}, {"stop_id": "26728", "stop_name": "R. Jacarezinho, 1399 - Mercês", "stop_lat": -25.417685941767, "stop_lon": -49.290508838169, "stop_sequence": 16}, {"stop_id": "26406", "stop_name": "Rua Quari, 1-41 - São Francisco", "stop_lat": -25.422217371557, "stop_lon": -49.275658101701, "stop_sequence": 17}, {"stop_id": "26571", "stop_name": "R. Jacarezinho, 1700 - Vista Alegre", "stop_lat": -25.414928510808, "stop_lon": -49.289786746963, "stop_sequence": 17}, {"stop_id": "26550", "stop_name": "Rua Trajano Reis, 296 - São Francisco", "stop_lat": -25.4242957772, "stop_lon": -49.274190974187, "stop_sequence": 18}, {"stop_id": "26427", "stop_name": "R. André Zanetti, 152 - Vista Alegre", "stop_lat": -25.412541906517, "stop_lon": -49.291303268337, "stop_sequence": 18}, {"stop_id": "27960", "stop_name": "Rua Ébano Pereira, 218 - Centro", "stop_lat": -25.429273320617, "stop_lon": -49.274994240349, "stop_sequence": 19}, {"stop_id": "26418", "stop_name": "R. Victório Viezzer, 805 - Vista Alegre", "stop_lat": -25.411520228346, "stop_lon": -49.294655560634, "stop_sequence": 19}, {"stop_id": "42586", "stop_name": "R. Dep. João Ferreira Neves, 6 - Vista Alegre", "stop_lat": -25.41076491127, "stop_lon": -49.296460300684, "stop_sequence": 20}, {"stop_id": "42585", "stop_name": "R. Dep. João Ferreira Neves, 4 - Vista Alegre", "stop_lat": -25.408933322657, "stop_lon": -49.29679825902, "stop_sequence": 21}, {"stop_id": "42583", "stop_name": "R. Dep. João Ferreira Neves, 461 - Vista Alegre", "stop_lat": -25.407681126206, "stop_lon": -49.2978335917, "stop_sequence": 22}]}