{"stops": [{"stop_id": "26237", "stop_name": "Terminal Cabral - 023 - Inter 2 (Anti-Horário)", "stop_lat": -25.406516459418, "stop_lon": -49.253004182335, "stop_sequence": 1}, {"stop_id": "26223", "stop_name": "Terminal Capão da Imbuia - 023 - Inter 2 (Anti-Horário)", "stop_lat": -25.439724117864, "stop_lon": -49.222056583467, "stop_sequence": 1}, {"stop_id": "25872", "stop_name": "Estação Tubo Centro Cívico - Palácio Iguaçú", "stop_lat": -25.415420483986, "stop_lon": -49.267928631252, "stop_sequence": 2}, {"stop_id": "25686", "stop_name": "Estação Tubo Detran - 307-Bairro Alto / Santa Felicidade - 023-Inter 2 (Anti-Horário)", "stop_lat": -25.430356995336, "stop_lon": -49.211201362269, "stop_sequence": 2}, {"stop_id": "25897", "stop_name": "Estação Tubo Teffé - 023-Inter 2 (Anti-Horário)", "stop_lat": -25.414534616689, "stop_lon": -49.279617725387, "stop_sequence": 3}, {"stop_id": "25685", "stop_name": "Estação Tubo Colégio Militar", "stop_lat": -25.428907225605, "stop_lon": -49.225112639325, "stop_sequence": 3}, {"stop_id": "25716", "stop_name": "Estação Tubo Mercês", "stop_lat": -25.422406165926, "stop_lon": -49.291661329815, "stop_sequence": 4}, {"stop_id": "25684", "stop_name": "Estação Tubo Praça das Nações", "stop_lat": -25.42592406059, "stop_lon": -49.242351196663, "stop_sequence": 4}, {"stop_id": "26283", "stop_name": "Terminal Campina do Siqueira - 023 - Inter 2 (Anti-Horário) - 024 - C.Raso - Camp.Siqueira", "stop_lat": -25.435855889927, "stop_lon": -49.307661075523, "stop_sequence": 5}, {"stop_id": "25683", "stop_name": "Estação Tubo Prisma Solar Agrárias", "stop_lat": -25.410621916056, "stop_lon": -49.248223893301, "stop_sequence": 5}, {"stop_id": "25682", "stop_name": "Estação Tubo Santa Quitéria", "stop_lat": -25.45914452819, "stop_lon": -49.302459095107, "stop_sequence": 6}, {"stop_id": "26242", "stop_name": "Terminal Portão - 023 - Inter 2 (Anti-Horário)", "stop_lat": -25.476420782687, "stop_lon": -49.292804594084, "stop_sequence": 7}, {"stop_id": "26243", "stop_name": "Terminal Capão Raso - 023 - Inter 2 (Anti-Horário) / 508-Sítio Cercado (Anti-Horário)", "stop_lat": -25.492322735256, "stop_lon": -49.293668155993, "stop_sequence": 8}, {"stop_id": "25821", "stop_name": "Estação Tubo Xaxim", "stop_lat": -25.496289845744, "stop_lon": -49.270365565109, "stop_sequence": 9}, {"stop_id": "26266", "stop_name": "Terminal Hauer - 023 - Inter 2 (Anti-Horário)", "stop_lat": -25.481429086091, "stop_lon": -49.246864974509, "stop_sequence": 10}, {"stop_id": "25698", "stop_name": "Estação Tubo Salgado Filho", "stop_lat": -25.471695546865, "stop_lon": -49.237493109333, "stop_sequence": 11}, {"stop_id": "25699", "stop_name": "Estação Tubo Jardim das Américas", "stop_lat": -25.452382098156, "stop_lon": -49.229970009274, "stop_sequence": 12}]}