{"stops": [{"stop_id": "30123", "stop_name": "Terminal Centenário - 331 - Mercúrio", "stop_lat": -25.469114932144, "stop_lon": -49.207962944775, "stop_sequence": 1}, {"stop_id": "33611", "stop_name": "Rua Engenheiro Benedito Mário da Silva, 185 - Cajuru", "stop_lat": -25.47043, "stop_lon": -49.20973, "stop_sequence": 2}, {"stop_id": "33609", "stop_name": "Rua Doutor Petrônio Romério de Souza, 95 - Cajuru", "stop_lat": -25.47167, "stop_lon": -49.21091, "stop_sequence": 3}, {"stop_id": "88981", "stop_name": "R. Dr. Petrônio Romero de Souza, 479 - Cajuru", "stop_lat": -25.474741001676, "stop_lon": -49.20824446122, "stop_sequence": 4}, {"stop_id": "89001", "stop_name": "R. Dr. Petrônio Romero de Souza, 851 - Cajuru", "stop_lat": -25.476428912032, "stop_lon": -49.205939381818, "stop_sequence": 5}, {"stop_id": "89002", "stop_name": "R. Dr. Petronio Romero, 899 - Cajuru", "stop_lat": -25.476936770058, "stop_lon": -49.20495014312, "stop_sequence": 6}, {"stop_id": "89003", "stop_name": "Marginal Roda Br Duzentos e Setenta e Sete, 11280 - Cajuru", "stop_lat": -25.477477820372, "stop_lon": -49.203710055146, "stop_sequence": 7}, {"stop_id": "30101", "stop_name": "Rua Deputado Acir José, 28 - Cajuru", "stop_lat": -25.4774, "stop_lon": -49.20248, "stop_sequence": 8}, {"stop_id": "30103", "stop_name": "Rua Deputado Acir José, 280 - Cajuru", "stop_lat": -25.4754, "stop_lon": -49.20139, "stop_sequence": 9}, {"stop_id": "30105", "stop_name": "Rua Deputado Acir José, 533 - Cajuru", "stop_lat": -25.4734, "stop_lon": -49.20032, "stop_sequence": 10}, {"stop_id": "89004", "stop_name": "Av. Jornalista Aderbal Gaertner Stresser -- Cajuru", "stop_lat": -25.471163869228, "stop_lon": -49.201743279017, "stop_sequence": 11}, {"stop_id": "89005", "stop_name": "Av. Jornalista Aderbal Gaertner Stresser - Cajuru", "stop_lat": -25.470303033118, "stop_lon": -49.204293347708, "stop_sequence": 12}, {"stop_id": "30115", "stop_name": "Rua Engenheiro Benedito Mário da Silva, 569 - Cajuru", "stop_lat": -25.469519641505, "stop_lon": -49.205904227018, "stop_sequence": 13}]}