{"stops": [{"stop_id": "44656", "stop_name": "Rua Padre Cláudio Arenal, 314- Uberaba", "stop_lat": -25.484758636743, "stop_lon": -49.19624760747, "stop_sequence": 1}, {"stop_id": "26340", "stop_name": "Praça Carlos Gomes - 463-Solitude", "stop_lat": -25.432814738347, "stop_lon": -49.270181686825, "stop_sequence": 1}, {"stop_id": "44666", "stop_name": "Rua Milton Machado, 288 - Uberaba", "stop_lat": -25.484401504866, "stop_lon": -49.194864928722, "stop_sequence": 2}, {"stop_id": "29922", "stop_name": "Rua José Loureiro, 274 - Centro", "stop_lat": -25.431968150347, "stop_lon": -49.267909855789, "stop_sequence": 2}, {"stop_id": "31525", "stop_name": "Marginal Rodovia Br 277, 6462- Uberaba", "stop_lat": -25.48171174617, "stop_lon": -49.19560420627, "stop_sequence": 3}, {"stop_id": "30223", "stop_name": "Rua João Negrão, 510 - Centro", "stop_lat": -25.433860008204, "stop_lon": -49.264960768075, "stop_sequence": 3}, {"stop_id": "31526", "stop_name": "Marginal Rodovia Br 277, 6089 - Uberaba", "stop_lat": -25.480604000508, "stop_lon": -49.198122800535, "stop_sequence": 4}, {"stop_id": "30892", "stop_name": "Rua João Negrão, 940 - Centro", "stop_lat": -25.43697371231, "stop_lon": -49.263431907839, "stop_sequence": 4}, {"stop_id": "31527", "stop_name": "Rua Alfredo Barcik, 185 - Cajuru", "stop_lat": -25.47874683898, "stop_lon": -49.198720933146, "stop_sequence": 5}, {"stop_id": "30895", "stop_name": "Rua João Negrão, 1274 - Centro", "stop_lat": -25.439979614001, "stop_lon": -49.26194462294, "stop_sequence": 5}, {"stop_id": "31528", "stop_name": "Rua Rivadávia F. de Macedo, 389 - Cajuru", "stop_lat": -25.478269831975, "stop_lon": -49.197694988197, "stop_sequence": 6}, {"stop_id": "30896", "stop_name": "Rua João Negrão, 1408 - Centro", "stop_lat": -25.441763500043, "stop_lon": -49.261036695189, "stop_sequence": 6}, {"stop_id": "31530", "stop_name": "Rua Doutor Amílton Portugal Pereira, 198 - Cajuru", "stop_lat": -25.47881161009, "stop_lon": -49.195494906253, "stop_sequence": 7}, {"stop_id": "30878", "stop_name": "Rua Brasílio Itiberê, 1349 - Jardim Botanico", "stop_lat": -25.442762610011, "stop_lon": -49.257536412424, "stop_sequence": 7}, {"stop_id": "31531", "stop_name": "Rua Doutor Amílton Portugal Pereira, 383 -Cajuru", "stop_lat": -25.476301250055, "stop_lon": -49.194147766775, "stop_sequence": 8}, {"stop_id": "30880", "stop_name": "Rua Brasílio Itiberê, 1145 - Jardim Botanico", "stop_lat": -25.441882182631, "stop_lon": -49.255241782612, "stop_sequence": 8}, {"stop_id": "31532", "stop_name": "Rua Antônio Moreira Lopes, 1301 - Cajuru", "stop_lat": -25.476962290382, "stop_lon": -49.192518324799, "stop_sequence": 9}, {"stop_id": "40083", "stop_name": "Rua Brasílio Itiberê, 849 - Jardim Botanico", "stop_lat": -25.440891277329, "stop_lon": -49.252665191889, "stop_sequence": 9}, {"stop_id": "27779", "stop_name": "Rua Antônio Moreira Lopes, 1545 - Cajuru", "stop_lat": -25.4796642994, "stop_lon": -49.194003433443, "stop_sequence": 10}, {"stop_id": "30904", "stop_name": "Rua Brasílio Itiberê, 563 - Jardim Botanico", "stop_lat": -25.439920271785, "stop_lon": -49.250104011244, "stop_sequence": 10}, {"stop_id": "30906", "stop_name": "Av. Prefeito Omar Sabag, 750 - Jardim Botanico", "stop_lat": -25.441326311136, "stop_lon": -49.249190719074, "stop_sequence": 11}, {"stop_id": "30915", "stop_name": "Av. Prefeito Omar Sabag, 213 - Jardim Botanico", "stop_lat": -25.44232542473, "stop_lon": -49.247905940956, "stop_sequence": 12}, {"stop_id": "90569", "stop_name": "Av. Prefeito Lothário Meissner, 72-108 - Jardim Botânico", "stop_lat": -25.443713778606, "stop_lon": -49.244387284621, "stop_sequence": 13}, {"stop_id": "88781", "stop_name": "Av. Prefeito Lothário Meissner, 446 - Jardim Botânico", "stop_lat": -25.444265194548, "stop_lon": -49.241041155929, "stop_sequence": 14}, {"stop_id": "30933", "stop_name": "Av. Prof. Lothário Meissner, 840 - Jardim Botânico", "stop_lat": -25.444048724821, "stop_lon": -49.237115414089, "stop_sequence": 15}, {"stop_id": "31462", "stop_name": "Rodovia BR-277 - Jardim da Américas", "stop_lat": -25.450284110955, "stop_lon": -49.228406176002, "stop_sequence": 16}, {"stop_id": "46148", "stop_name": "Rodovia BR-277 - Jardim da Américas", "stop_lat": -25.453013200327, "stop_lon": -49.226234704256, "stop_sequence": 17}, {"stop_id": "31514", "stop_name": "BR- 277 - Jardim das Américas", "stop_lat": -25.459543996232, "stop_lon": -49.221026183313, "stop_sequence": 18}, {"stop_id": "31519", "stop_name": "BR -277 - Jardim das Américas", "stop_lat": -25.464014439915, "stop_lon": -49.217449457592, "stop_sequence": 19}, {"stop_id": "31520", "stop_name": "BR--277 - Jardim das Américas", "stop_lat": -25.468856425955, "stop_lon": -49.213611216492, "stop_sequence": 20}, {"stop_id": "31523", "stop_name": "BR-277 - Cajuru", "stop_lat": -25.474216406758, "stop_lon": -49.209291518873, "stop_sequence": 21}, {"stop_id": "31706", "stop_name": "BR-277, 1534 - Cajuru", "stop_lat": -25.478284360135, "stop_lon": -49.202973575539, "stop_sequence": 22}]}