{"stops": [{"stop_id": "28039", "stop_name": "Terminal Cabral - 207 - Cabral / Osório", "stop_lat": -25.406335841992, "stop_lon": -49.252463445965, "stop_sequence": 1}, {"stop_id": "1343", "stop_name": "Praça Osório - 207 -Cabral / Osório", "stop_lat": -25.433027310274, "stop_lon": -49.276453985285, "stop_sequence": 1}, {"stop_id": "26226", "stop_name": "Rua dos Funcionários, 152 - Cabral", "stop_lat": -25.402078890163, "stop_lon": -49.255738374231, "stop_sequence": 2}, {"stop_id": "29420", "stop_name": "Rua Cruz Machado, 301 - Centro", "stop_lat": -25.430894327324, "stop_lon": -49.276454032606, "stop_sequence": 2}, {"stop_id": "29052", "stop_name": "R. Eça de Queiroz, 1251 - Ahú", "stop_lat": -25.40235, "stop_lon": -49.25898, "stop_sequence": 3}, {"stop_id": "29082", "stop_name": "Rua Cruz Machado, 82 - Centro", "stop_lat": -25.43008, "stop_lon": -49.27409, "stop_sequence": 3}, {"stop_id": "29053", "stop_name": "R. Eça de Queiroz, 921 - Ahú", "stop_lat": -25.401709096951, "stop_lon": -49.262440699406, "stop_sequence": 4}, {"stop_id": "26334", "stop_name": "Praça Tiradentes - 207 - Cabral/ Osório - 260 - Mal.Hermes/Sta.Efigênia", "stop_lat": -25.430195019723, "stop_lon": -49.271926463789, "stop_sequence": 4}, {"stop_id": "29055", "stop_name": "R. Brasilino Moura, 602 - Ahú", "stop_lat": -25.4011, "stop_lon": -49.26497, "stop_sequence": 5}, {"stop_id": "26796", "stop_name": "Rua Duque de Caxias, 155 - São Francisco", "stop_lat": -25.425880768114, "stop_lon": -49.273237735299, "stop_sequence": 5}, {"stop_id": "29057", "stop_name": "R. Brasilino Moura, 331 - São Lourenço", "stop_lat": -25.401821606958, "stop_lon": -49.269077460327, "stop_sequence": 6}, {"stop_id": "26462", "stop_name": "Rua Inácio Lustosa, 434 - São Francisco", "stop_lat": -25.423648628482, "stop_lon": -49.273810148865, "stop_sequence": 6}, {"stop_id": "30233", "stop_name": "R. Brasilino Moura, 79 - São Lourenço", "stop_lat": -25.402914104034, "stop_lon": -49.27084955687, "stop_sequence": 7}, {"stop_id": "26769", "stop_name": "Rua Des. Benvindo Valente, 104 - São Francisco", "stop_lat": -25.420492090242, "stop_lon": -49.275229786378, "stop_sequence": 7}, {"stop_id": "29059", "stop_name": "R. Carlos Augusto Cornelsen, 122 - Bom Retiro", "stop_lat": -25.403497908439, "stop_lon": -49.273584139881, "stop_sequence": 8}, {"stop_id": "26548", "stop_name": "R. Des. Benvindo Valente, 285 - São Francisco", "stop_lat": -25.419297532554, "stop_lon": -49.276072969633, "stop_sequence": 8}, {"stop_id": "27450", "stop_name": "R. Nilo Peçanha, 1900 - Pilarzinho", "stop_lat": -25.404092287633, "stop_lon": -49.275649006075, "stop_sequence": 9}, {"stop_id": "27255", "stop_name": "R. Albino Silva, 122 - Bom Retiro", "stop_lat": -25.416686217974, "stop_lon": -49.276544276273, "stop_sequence": 9}, {"stop_id": "27291", "stop_name": "R. Nilo Peçanha, 1571 - Bom Retiro", "stop_lat": -25.406519777418, "stop_lon": -49.276052050075, "stop_sequence": 10}, {"stop_id": "36676", "stop_name": "R. Teffé, 284 - Bom Retiro", "stop_lat": -25.414801900671, "stop_lon": -49.27761696578, "stop_sequence": 10}, {"stop_id": "27290", "stop_name": "R. Nilo Peçanha, 1377 - Bom Retiro", "stop_lat": -25.408545550262, "stop_lon": -49.276305912747, "stop_sequence": 11}, {"stop_id": "36672", "stop_name": "R. Des. Hugo Simas, 566 - Bom Retiro", "stop_lat": -25.413777398895, "stop_lon": -49.279280233135, "stop_sequence": 11}, {"stop_id": "27447", "stop_name": "R. Nilo Peçanha, 897 - São Francisco", "stop_lat": -25.411371196835, "stop_lon": -49.274956361894, "stop_sequence": 12}, {"stop_id": "33157", "stop_name": "R. Carlos Pioli, 471 - Bom Retiro", "stop_lat": -25.410516984135, "stop_lon": -49.276479387732, "stop_sequence": 12}, {"stop_id": "27446", "stop_name": "R. Nilo Peçanha, 600 - Pilarzinho", "stop_lat": -25.414571265297, "stop_lon": -49.273996296226, "stop_sequence": 13}, {"stop_id": "27448", "stop_name": "R. Carlos Pioli, 220 - Bom Retiro", "stop_lat": -25.410828982251, "stop_lon": -49.274005918517, "stop_sequence": 13}, {"stop_id": "36675", "stop_name": "R. Nilo Peçanha, 374 - Bom Retiro", "stop_lat": -25.417137631974, "stop_lon": -49.274446530094, "stop_sequence": 14}, {"stop_id": "33159", "stop_name": "R. Dep. Mário de Barros, 1681 - Centro Cívico", "stop_lat": -25.411725747542, "stop_lon": -49.270902069941, "stop_sequence": 14}, {"stop_id": "26682", "stop_name": "R. Nilo Peçanha,162 - Bom Retiro", "stop_lat": -25.418907138692, "stop_lon": -49.274696505794, "stop_sequence": 15}, {"stop_id": "28585", "stop_name": "R. Mateus Leme, 1654 - São Francisco", "stop_lat": -25.412732407619, "stop_lon": -49.271372587627, "stop_sequence": 15}, {"stop_id": "90704", "stop_name": "R. Nilo Peçanha, 760", "stop_lat": -25.42065962982, "stop_lon": -49.274778235883, "stop_sequence": 16}, {"stop_id": "28613", "stop_name": "R. Mateus Leme, 1772 - Bom Retiro", "stop_lat": -25.409162919662, "stop_lon": -49.271455736107, "stop_sequence": 16}, {"stop_id": "26550", "stop_name": "Rua Trajano Reis, 296 - São Francisco", "stop_lat": -25.4242957772, "stop_lon": -49.274190974187, "stop_sequence": 17}, {"stop_id": "28587", "stop_name": "R. Mateus Leme, 2252 - Bom Retiro", "stop_lat": -25.407071686833, "stop_lon": -49.271422208494, "stop_sequence": 17}, {"stop_id": "27256", "stop_name": "Rua Treze de Maio, 503 - São Francisco", "stop_lat": -25.426928549988, "stop_lon": -49.271383145224, "stop_sequence": 18}, {"stop_id": "28589", "stop_name": "R. Mateus Leme, 2523 - Bom Retiro", "stop_lat": -25.405207333944, "stop_lon": -49.271042675919, "stop_sequence": 18}, {"stop_id": "28946", "stop_name": "Rua Barão do Serro Azul, 217 - São Francisco", "stop_lat": -25.427695151901, "stop_lon": -49.271025854244, "stop_sequence": 19}, {"stop_id": "30232", "stop_name": "R. Brasilino Moura, 90 - São Lourenço", "stop_lat": -25.403061899352, "stop_lon": -49.270802618212, "stop_sequence": 19}, {"stop_id": "26720", "stop_name": "Alameda Augusto Stellfeld, 285 - São Francisco", "stop_lat": -25.429152243676, "stop_lon": -49.276481034584, "stop_sequence": 20}, {"stop_id": "29058", "stop_name": "Rua Brasilino Moura, 330 - São Lourenço", "stop_lat": -25.401762136668, "stop_lon": -49.268438163195, "stop_sequence": 20}, {"stop_id": "26718", "stop_name": "R. Visc. de Nacar, 866 - Centro", "stop_lat": -25.430217696146, "stop_lon": -49.279159152809, "stop_sequence": 21}, {"stop_id": "29056", "stop_name": "R. Brasilino Moura, 605 - Ahú", "stop_lat": -25.40126, "stop_lon": -49.26492, "stop_sequence": 21}, {"stop_id": "29054", "stop_name": "R. Eça de Queiroz, 940 - Ahú", "stop_lat": -25.401900925253, "stop_lon": -49.262234023313, "stop_sequence": 22}, {"stop_id": "29943", "stop_name": "R. Eça de Queiroz, 1260 - Ahú", "stop_lat": -25.402382962766, "stop_lon": -49.25947409834, "stop_sequence": 23}, {"stop_id": "29363", "stop_name": "Rua dos Funcionários, 157 - Cabral", "stop_lat": -25.402083054858, "stop_lon": -49.255968661255, "stop_sequence": 24}]}