{"stops": [{"stop_id": "26298", "stop_name": "Terminal Pinheirinho - 550 - Pinheirinho/C.Gomes", "stop_lat": -25.512104886599, "stop_lon": -49.294667234918, "stop_sequence": 1}, {"stop_id": "25906", "stop_name": "Praça Carlos Gomes - 550-Ligeirão Pinheirinho / C. Gomes", "stop_lat": -25.433994591577, "stop_lon": -49.269173663269, "stop_sequence": 1}, {"stop_id": "25638", "stop_name": "Estação Tubo Vila São Pedro", "stop_lat": -25.506813852496, "stop_lon": -49.284278333535, "stop_sequence": 2}, {"stop_id": "26028", "stop_name": "Estação Tubo UTFPR", "stop_lat": -25.439078856746, "stop_lon": -49.26810326864, "stop_sequence": 2}, {"stop_id": "26036", "stop_name": "Estação Tubo Xaxim", "stop_lat": -25.496691179013, "stop_lon": -49.276145875802, "stop_sequence": 3}, {"stop_id": "25500", "stop_name": "Estação Tubo Almirante Gonçalves", "stop_lat": -25.448495803122, "stop_lon": -49.263417449491, "stop_sequence": 3}, {"stop_id": "25419", "stop_name": "Estação Tubo Santa Bernadethe", "stop_lat": -25.485232091382, "stop_lon": -49.266797036282, "stop_sequence": 4}, {"stop_id": "25807", "stop_name": "Estação Tubo Parolin", "stop_lat": -25.463042423329, "stop_lon": -49.256412610828, "stop_sequence": 4}, {"stop_id": "26026", "stop_name": "Estação Tubo Fanny.", "stop_lat": -25.474973889693, "stop_lon": -49.258533150306, "stop_sequence": 5}, {"stop_id": "25463", "stop_name": "Estação Tubo Marechal Floriano", "stop_lat": -25.469144829675, "stop_lon": -49.254036970696, "stop_sequence": 5}, {"stop_id": "25644", "stop_name": "Estação Tubo Marechal Floriano", "stop_lat": -25.469295510447, "stop_lon": -49.253855377784, "stop_sequence": 6}, {"stop_id": "26025", "stop_name": "Estação Tubo Fanny", "stop_lat": -25.474845554019, "stop_lon": -49.258702129474, "stop_sequence": 6}, {"stop_id": "25808", "stop_name": "Estação Tubo Parolin", "stop_lat": -25.462976432893, "stop_lon": -49.256245643318, "stop_sequence": 7}, {"stop_id": "26021", "stop_name": "Estação Tubo Santa Bernadethe", "stop_lat": -25.485113611665, "stop_lon": -49.26698181147, "stop_sequence": 7}, {"stop_id": "25502", "stop_name": "Estação Tubo Almirante Gonçalves", "stop_lat": -25.447431347258, "stop_lon": -49.263825145262, "stop_sequence": 8}, {"stop_id": "26035", "stop_name": "Estação Tubo Xaxim", "stop_lat": -25.496640338232, "stop_lon": -49.27637118136, "stop_sequence": 8}, {"stop_id": "25515", "stop_name": "Estação Tubo UTFPR - Desembarque", "stop_lat": -25.438807575773, "stop_lon": -49.268115338581, "stop_sequence": 9}, {"stop_id": "25639", "stop_name": "Estação Tubo Vila São Pedro", "stop_lat": -25.506738808136, "stop_lon": -49.284472793689, "stop_sequence": 9}]}