{"stops": [{"stop_id": "28606", "stop_name": "Terminal CIC - 210 - CIC/Cabral - 601 - CIC / Tiradentes", "stop_lat": -25.511781903577, "stop_lon": -49.324788163195, "stop_sequence": 1}, {"stop_id": "31705", "stop_name": "Terminal Maracanã - 607 - Colombo / CIC (Embarque)", "stop_lat": -25.36662, "stop_lon": -49.18702, "stop_sequence": 1}, {"stop_id": "26247", "stop_name": "Terminal Capão Raso - 210 - CIC / Cabral", "stop_lat": -25.492114522446, "stop_lon": -49.293043201293, "stop_sequence": 2}, {"stop_id": "26233", "stop_name": "Terminal Cabral - 210 - CIC / Cabral - 700 - Pinheirinho / Cabral", "stop_lat": -25.406060351332, "stop_lon": -49.252577007956, "stop_sequence": 2}, {"stop_id": "25812", "stop_name": "Estação Tubo Vila Guaíra", "stop_lat": -25.471888446609, "stop_lon": -49.285734519779, "stop_sequence": 3}, {"stop_id": "25711", "stop_name": "Estação Tubo Comendador Fontana", "stop_lat": -25.419772264442, "stop_lon": -49.26913860475, "stop_sequence": 3}, {"stop_id": "89865", "stop_name": "Estação Tubo Pres. Kennedy", "stop_lat": -25.4554703142, "stop_lon": -49.267546980656, "stop_sequence": 4}, {"stop_id": "25893", "stop_name": "Estação Tubo Nestor de Castro - 210 - CIC/Cabral", "stop_lat": -25.428518757493, "stop_lon": -49.272823662704, "stop_sequence": 4}, {"stop_id": "25920", "stop_name": "Estação Tubo Sete de Setembro", "stop_lat": -25.440314255936, "stop_lon": -49.271795462059, "stop_sequence": 5}, {"stop_id": "25900", "stop_name": "Estação Tubo Praça Rui Barbosa - 210 - CIC / Cabral", "stop_lat": -25.436484639904, "stop_lon": -49.271032434116, "stop_sequence": 5}, {"stop_id": "25894", "stop_name": "Praça Tiradentes - 210 - CIC / CABRAL", "stop_lat": -25.429397071406, "stop_lon": -49.272323430723, "stop_sequence": 6}, {"stop_id": "25712", "stop_name": "Estação Tubo Comendador Fontana", "stop_lat": -25.419830405313, "stop_lon": -49.268907934775, "stop_sequence": 7}, {"stop_id": "26232", "stop_name": "Terminal Cabral - 607- Colombo / CIC - B02 - Maracanã / Cabral", "stop_lat": -25.407046951015, "stop_lon": -49.252644063181, "stop_sequence": 8}, {"stop_id": "26245", "stop_name": "Terminal Capão Raso - 210 - CIC/ Cabral - 606 - Ctba / Araucária", "stop_lat": -25.491804623642, "stop_lon": -49.29373252901, "stop_sequence": 8}]}