{"stops": [{"stop_id": "26196", "stop_name": "Terminal Santa Cândida - 200 - Ligeirão Sta.Cândida/Pça. do Japão - 203 - Santa Cândida / Capão Raso", "stop_lat": -25.377358491106, "stop_lon": -49.224221622586, "stop_sequence": 1}, {"stop_id": "26199", "stop_name": "Terminal Capão Raso - 203 - Santa Cândida / Capão Raso", "stop_lat": -25.491755433148, "stop_lon": -49.293489668088, "stop_sequence": 1}, {"stop_id": "25378", "stop_name": "Estação Tubo Joaquim Nabuco", "stop_lat": -25.380727998652, "stop_lon": -49.228829736389, "stop_sequence": 2}, {"stop_id": "25737", "stop_name": "Estação Tubo Hospital do Trabalhador", "stop_lat": -25.484422475285, "stop_lon": -49.293689619014, "stop_sequence": 2}, {"stop_id": "26022", "stop_name": "Estação Tubo Fernando de Noronha", "stop_lat": -25.385134371048, "stop_lon": -49.232854477791, "stop_sequence": 3}, {"stop_id": "25540", "stop_name": "Estação Tubo Itajubá", "stop_lat": -25.481900256161, "stop_lon": -49.29264512209, "stop_sequence": 3}, {"stop_id": "25380", "stop_name": "Estação Tubo Antônio Lago", "stop_lat": -25.388780237354, "stop_lon": -49.236226186568, "stop_sequence": 4}, {"stop_id": "26197", "stop_name": "Terminal Portão-202-Cabral/C.Raso-203-Sta.Cândida/C.Raso-603-Pinheirinho-Circular Sul(H)", "stop_lat": -25.47637224, "stop_lon": -49.29260731, "stop_sequence": 4}, {"stop_id": "26190", "stop_name": "Terminal Boa Vista - 250 - Ligeirão Norte/Sul - 203-Sta.Cândida / C. Raso", "stop_lat": -25.39351746, "stop_lon": -49.24061637, "stop_sequence": 5}, {"stop_id": "25924", "stop_name": "Estação Tubo Carlos Dietzsch", "stop_lat": -25.472848913506, "stop_lon": -49.294349362898, "stop_sequence": 5}, {"stop_id": "26020", "stop_name": "Estação Tubo Gago Coutinho", "stop_lat": -25.396518311125, "stop_lon": -49.243371084002, "stop_sequence": 6}, {"stop_id": "25925", "stop_name": "Estação Tubo Morretes", "stop_lat": -25.46667036609, "stop_lon": -49.292333682824, "stop_sequence": 6}, {"stop_id": "26019", "stop_name": "Estação Tubo Holanda", "stop_lat": -25.399555354092, "stop_lon": -49.246224370986, "stop_sequence": 7}, {"stop_id": "26009", "stop_name": "Estação Tubo Vital Brasil", "stop_lat": -25.463814425717, "stop_lon": -49.290870537806, "stop_sequence": 7}, {"stop_id": "25383", "stop_name": "Estação Tubo Antônio Cavalheiros", "stop_lat": -25.403501586783, "stop_lon": -49.249864792933, "stop_sequence": 8}, {"stop_id": "25523", "stop_name": "Estação Tubo Sebastião Paraná", "stop_lat": -25.46020659274, "stop_lon": -49.289328913422, "stop_sequence": 8}, {"stop_id": "26187", "stop_name": "Terminal Cabral - 250 - Ligeirão Norte/Sul - 203-Santa Cândida/Capão Raso", "stop_lat": -25.40643942, "stop_lon": -49.25274264, "stop_sequence": 9}, {"stop_id": "26010", "stop_name": "Estação Tubo Dom Pedro l", "stop_lat": -25.455506512608, "stop_lon": -49.288209115911, "stop_sequence": 9}, {"stop_id": "25384", "stop_name": "Estação Tubo Bom Jesus", "stop_lat": -25.410093244956, "stop_lon": -49.255935977351, "stop_sequence": 10}, {"stop_id": "25733", "stop_name": "Estação Tubo Petit Carneiro", "stop_lat": -25.452294327996, "stop_lon": -49.287844382803, "stop_sequence": 10}, {"stop_id": "25385", "stop_name": "Estação Tubo Moisés Marcondes", "stop_lat": -25.413370782272, "stop_lon": -49.258952961887, "stop_sequence": 11}, {"stop_id": "25732", "stop_name": "Estação Tubo Silva Jardim", "stop_lat": -25.448322747926, "stop_lon": -49.287777398148, "stop_sequence": 11}, {"stop_id": "25386", "stop_name": "Estação Tubo Constantino Marochi", "stop_lat": -25.416066058281, "stop_lon": -49.26150706627, "stop_sequence": 12}, {"stop_id": "25731", "stop_name": "Estação Tubo Bento Viana", "stop_lat": -25.444886124648, "stop_lon": -49.285470404369, "stop_sequence": 12}, {"stop_id": "25387", "stop_name": "Estação Tubo Maria Clara", "stop_lat": -25.419901596561, "stop_lon": -49.265101084072, "stop_sequence": 13}, {"stop_id": "25521", "stop_name": "Estação Tubo Coronel Dulcídio", "stop_lat": -25.44298821663, "stop_lon": -49.280469406152, "stop_sequence": 13}, {"stop_id": "25388", "stop_name": "Estação Tubo Passeio Público", "stop_lat": -25.423876886501, "stop_lon": -49.268388973076, "stop_sequence": 14}, {"stop_id": "25730", "stop_name": "Estação Tubo Praça Oswaldo Cruz", "stop_lat": -25.441207339035, "stop_lon": -49.275852571199, "stop_sequence": 14}, {"stop_id": "1133", "stop_name": "Estação Central", "stop_lat": -25.429994053636, "stop_lon": -49.267617165582, "stop_sequence": 15}, {"stop_id": "25904", "stop_name": "Praça Rui Barbosa - (Embarque) Pinhais / Rui Barbosa - Centenário / Rui Barbosa", "stop_lat": -25.436513706313, "stop_lon": -49.274033826003, "stop_sequence": 15}, {"stop_id": "26185", "stop_name": "Estação Tubo Praça Rui Barbosa - 303 - Centenário / Campo Comprido", "stop_lat": -25.435613478, "stop_lon": -49.27426829, "stop_sequence": 16}, {"stop_id": "25729", "stop_name": "Estação Tubo Alferes Poli / Catedral da Fé", "stop_lat": -25.439140453466, "stop_lon": -49.270409143408, "stop_sequence": 16}, {"stop_id": "25391", "stop_name": "Estação Tubo Praça Oswaldo Cruz", "stop_lat": -25.441600910618, "stop_lon": -49.277095755077, "stop_sequence": 17}, {"stop_id": "1150", "stop_name": "Estação Central", "stop_lat": -25.429965307362, "stop_lon": -49.267513649777, "stop_sequence": 17}, {"stop_id": "25392", "stop_name": "Estação Tubo Coronel Dulcídio", "stop_lat": -25.443372665226, "stop_lon": -49.281736143522, "stop_sequence": 18}, {"stop_id": "25728", "stop_name": "Estação Tubo Passeio Público", "stop_lat": -25.423959273219, "stop_lon": -49.268337668127, "stop_sequence": 18}, {"stop_id": "25393", "stop_name": "Estação Tubo Bento Viana", "stop_lat": -25.4448158457, "stop_lon": -49.285595177088, "stop_sequence": 19}, {"stop_id": "26015", "stop_name": "Estação Tubo Maria Clara", "stop_lat": -25.418876163377, "stop_lon": -49.263979078478, "stop_sequence": 19}, {"stop_id": "25394", "stop_name": "Estação Tubo Silva Jardim", "stop_lat": -25.448330003815, "stop_lon": -49.287868593254, "stop_sequence": 20}, {"stop_id": "26016", "stop_name": "Estação Tubo Constantino Marochi", "stop_lat": -25.415155061624, "stop_lon": -49.260541827625, "stop_sequence": 20}, {"stop_id": "25395", "stop_name": "Estação Tubo Petit Carneiro", "stop_lat": -25.453385605323, "stop_lon": -49.28791478079, "stop_sequence": 21}, {"stop_id": "25709", "stop_name": "Estação Tubo Moisés Marcondes", "stop_lat": -25.41239408359, "stop_lon": -49.257930706177, "stop_sequence": 21}, {"stop_id": "25396", "stop_name": "Estação Tubo Dom Pedro I", "stop_lat": -25.45693318, "stop_lon": -49.28858994, "stop_sequence": 22}, {"stop_id": "26017", "stop_name": "Estação Tubo Bom Jesus", "stop_lat": -25.409287309813, "stop_lon": -49.255050004667, "stop_sequence": 22}, {"stop_id": "25738", "stop_name": "Estação Tubo Sebastião Paraná", "stop_lat": -25.461213787336, "stop_lon": -49.289891156134, "stop_sequence": 23}, {"stop_id": "26184", "stop_name": "Terminal Cabral - 250 - Ligeirão Norte/Sul - 203-Santa Cândida/Capão Raso", "stop_lat": -25.406763658218, "stop_lon": -49.252844767511, "stop_sequence": 23}, {"stop_id": "25398", "stop_name": "Estação Tubo Vital Brasil", "stop_lat": -25.464674152028, "stop_lon": -49.291327389882, "stop_sequence": 24}, {"stop_id": "25707", "stop_name": "Estação Tubo Antônio Cavalheiros", "stop_lat": -25.402475202806, "stop_lon": -49.248784373437, "stop_sequence": 24}, {"stop_id": "25399", "stop_name": "Estação Tubo Morretes", "stop_lat": -25.467829761606, "stop_lon": -49.293399735142, "stop_sequence": 25}, {"stop_id": "25700", "stop_name": "Estação Tubo Holanda", "stop_lat": -25.398800614989, "stop_lon": -49.245376802937, "stop_sequence": 25}, {"stop_id": "25400", "stop_name": "Estação Tubo Carlos Dietzsch", "stop_lat": -25.473439669547, "stop_lon": -49.294344543415, "stop_sequence": 26}, {"stop_id": "25706", "stop_name": "Estação Tubo Gago Coutinho", "stop_lat": -25.395744242316, "stop_lon": -49.242493252193, "stop_sequence": 26}, {"stop_id": "26263", "stop_name": "Terminal Portão-202-Cabral/C.Raso-203-Sta.Cândida/C.Raso-603-Pinheirinho-602-Circular Sul(AH)", "stop_lat": -25.476410212996, "stop_lon": -49.292681397146, "stop_sequence": 27}, {"stop_id": "26193", "stop_name": "Terminal Boa Vista -250 - Ligeirão Norte/Sul - 203-Sta.Cândida / C. Raso", "stop_lat": -25.39366084452, "stop_lon": -49.24063428764, "stop_sequence": 27}, {"stop_id": "25402", "stop_name": "Estação Tubo Itajubá", "stop_lat": -25.481815521522, "stop_lon": -49.292786598616, "stop_sequence": 28}, {"stop_id": "25703", "stop_name": "Estação Tubo Antônio Lago", "stop_lat": -25.38790309648, "stop_lon": -49.235215078031, "stop_sequence": 28}, {"stop_id": "25403", "stop_name": "Estação Tubo Hospital do Trabalhador", "stop_lat": -25.48580391176, "stop_lon": -49.294195255414, "stop_sequence": 29}, {"stop_id": "25701", "stop_name": "Estação Tubo Fernando de Noronha", "stop_lat": -25.384271911266, "stop_lon": -49.231926689778, "stop_sequence": 29}, {"stop_id": "25702", "stop_name": "Estação Tubo Joaquim Nabuco", "stop_lat": -25.379907559523, "stop_lon": -49.22793153945, "stop_sequence": 30}]}