{"stops": [{"stop_id": "32785", "stop_name": "Rua Ernani Santiago de Oliveira, 171 - Centro Cívico", "stop_lat": -25.41632, "stop_lon": -49.26904, "stop_sequence": 1}, {"stop_id": "88281", "stop_name": "Estação Tubo PUC (Oficinas / Uberaba)", "stop_lat": -25.458900304938, "stop_lon": -49.249728731775, "stop_sequence": 1}, {"stop_id": "32786", "stop_name": "R. Jacy Loureiro de Campos, 1 - Centro Cívico", "stop_lat": -25.414750954843, "stop_lon": -49.269954606152, "stop_sequence": 2}, {"stop_id": "32222", "stop_name": "Av. Sen. Salgado Filho, 463 - Prado Velho", "stop_lat": -25.457204180942, "stop_lon": -49.250273562241, "stop_sequence": 2}, {"stop_id": "32787", "stop_name": "R. Dep. Mário de Barros, 1681 - Centro Cívico", "stop_lat": -25.411519072436, "stop_lon": -49.27147046627, "stop_sequence": 3}, {"stop_id": "32223", "stop_name": "Av. Sen. Salgado Filho, 80 - Prado Velho", "stop_lat": -25.453965000982, "stop_lon": -49.252125627565, "stop_sequence": 3}, {"stop_id": "32788", "stop_name": "R. Carlos Pioli, 471 - Bom Retiro", "stop_lat": -25.410308195459, "stop_lon": -49.27609842576, "stop_sequence": 4}, {"stop_id": "32769", "stop_name": "Rua Imaculada Conceição, 1091 - Prado Velho", "stop_lat": -25.45052, "stop_lon": -49.25291, "stop_sequence": 4}, {"stop_id": "32789", "stop_name": "R. Carlos Pioli, 861 - Bom Retiro", "stop_lat": -25.41197, "stop_lon": -49.27903, "stop_sequence": 5}, {"stop_id": "32770", "stop_name": "Rua Imaculada Conceição, 631 - Prado Velho", "stop_lat": -25.44647, "stop_lon": -49.25388, "stop_sequence": 5}, {"stop_id": "32790", "stop_name": "R. Dom Alberto Gonçalves, 951 - Bom Retiro", "stop_lat": -25.413472422663, "stop_lon": -49.281147930059, "stop_sequence": 6}, {"stop_id": "32771", "stop_name": "Rua Imaculada Conceição, 205 - Rebouças", "stop_lat": -25.44264, "stop_lon": -49.25573, "stop_sequence": 6}, {"stop_id": "32791", "stop_name": "R. Dom Alberto Gonçalves, 611-745 - Mercês", "stop_lat": -25.416719717526, "stop_lon": -49.282000495701, "stop_sequence": 7}, {"stop_id": "30948", "stop_name": "Viaduto Colorado, 1159 - Rebouças", "stop_lat": -25.436607355344, "stop_lon": -49.260179058856, "stop_sequence": 7}, {"stop_id": "32792", "stop_name": "R. Dom Alberto Gonçalves, 256 - Mercês", "stop_lat": -25.419750929556, "stop_lon": -49.282769766865, "stop_sequence": 8}, {"stop_id": "32772", "stop_name": "Av. Sete de Setembro, 1797 - Centro", "stop_lat": -25.43405, "stop_lon": -49.25686, "stop_sequence": 8}, {"stop_id": "32793", "stop_name": "R. Dom Alberto Gonçalves, 44 - Mercês", "stop_lat": -25.421716676263, "stop_lon": -49.28331842576, "stop_sequence": 9}, {"stop_id": "32773", "stop_name": "R. José de Alencar, 361 - Alto da Rua Quinze", "stop_lat": -25.431270813559, "stop_lon": -49.254113440476, "stop_sequence": 9}, {"stop_id": "32794", "stop_name": "Av. Manoel Ribas, 530 - Mercês", "stop_lat": -25.422354282858, "stop_lon": -49.284145743551, "stop_sequence": 10}, {"stop_id": "32774", "stop_name": "R. José de Alencar, 641 - Alto da Rua Quinze", "stop_lat": -25.429290931856, "stop_lon": -49.253856588955, "stop_sequence": 10}, {"stop_id": "32795", "stop_name": "Av. Manoel Ribas, 898 - Mercês", "stop_lat": -25.422197325377, "stop_lon": -49.288070641699, "stop_sequence": 11}, {"stop_id": "32776", "stop_name": "Rua José de Alencar, 1391 - Alto da Rua XV", "stop_lat": -25.42337, "stop_lon": -49.25315, "stop_sequence": 11}, {"stop_id": "32796", "stop_name": "Av. Manoel Ribas, 1054 - Mercês", "stop_lat": -25.422572451556, "stop_lon": -49.290002332506, "stop_sequence": 12}, {"stop_id": "32777", "stop_name": "R. José de Alencar, 1693 - Alto da XV", "stop_lat": -25.42017, "stop_lon": -49.25279, "stop_sequence": 12}, {"stop_id": "32797", "stop_name": "Alameda Pres. Taunay, 1826 - Mercês", "stop_lat": -25.423931211227, "stop_lon": -49.291052449074, "stop_sequence": 13}, {"stop_id": "32778", "stop_name": "Rua Augusto Stresser, 908 - Juvevê", "stop_lat": -25.416890336817, "stop_lon": -49.252919504299, "stop_sequence": 13}, {"stop_id": "32798", "stop_name": "Alameda Pres. Taunay, 1432 - Mercês", "stop_lat": -25.427157483578, "stop_lon": -49.289513906746, "stop_sequence": 14}, {"stop_id": "32779", "stop_name": "Rua Rocha Pombo, 2 - Juvevê", "stop_lat": -25.416176648704, "stop_lon": -49.255896588955, "stop_sequence": 14}, {"stop_id": "32799", "stop_name": "R. Padre Agostinho, 1168 - Bigorrilho", "stop_lat": -25.42804152399, "stop_lon": -49.290816150961, "stop_sequence": 15}, {"stop_id": "32780", "stop_name": "Rua Rocha Pombo, 466 - Juvevê", "stop_lat": -25.41395, "stop_lon": -49.25893, "stop_sequence": 15}, {"stop_id": "32800", "stop_name": "R. Padre Agostinho, 1380 - Bigorrilho", "stop_lat": -25.429076024657, "stop_lon": -49.293428775463, "stop_sequence": 16}, {"stop_id": "32781", "stop_name": "Rua Rocha Pombo, 920 - Juvevê", "stop_lat": -25.412399381482, "stop_lon": -49.262105976686, "stop_sequence": 16}, {"stop_id": "32801", "stop_name": "R. Francisco Rocha, 1711 - Bigorrilho", "stop_lat": -25.430959689249, "stop_lon": -49.295817317791, "stop_sequence": 17}, {"stop_id": "32782", "stop_name": "Rua Alberto Folloni, 477 - Juvevê", "stop_lat": -25.41108, "stop_lon": -49.26382, "stop_sequence": 17}, {"stop_id": "32802", "stop_name": "R. Francisco Rocha, 1362 - Bigorrilho", "stop_lat": -25.433904877339, "stop_lon": -49.29412046627, "stop_sequence": 18}, {"stop_id": "30625", "stop_name": "R. Manoel Eufrásio, 1223 - Ahú", "stop_lat": -25.409179497499, "stop_lon": -49.265251786655, "stop_sequence": 18}, {"stop_id": "32803", "stop_name": "R. Francisco Rocha, 956 - Bigorrilho", "stop_lat": -25.437100622493, "stop_lon": -49.292313790178, "stop_sequence": 19}, {"stop_id": "30146", "stop_name": "R. Mal. Hermes, 910 - Centro Cívico", "stop_lat": -25.410867950571, "stop_lon": -49.266023353639, "stop_sequence": 19}, {"stop_id": "32804", "stop_name": "R. Francisco Rocha, 612 - Batel", "stop_lat": -25.440617266354, "stop_lon": -49.290334139881, "stop_sequence": 20}, {"stop_id": "30149", "stop_name": "Rua Prof. Benedito N dos Santos, 42 - Centro Cívico", "stop_lat": -25.413776385812, "stop_lon": -49.266247318092, "stop_sequence": 20}, {"stop_id": "29938", "stop_name": "Av. do Batel, 1614 - Batel", "stop_lat": -25.442672993214, "stop_lon": -49.288137735075, "stop_sequence": 21}, {"stop_id": "29932", "stop_name": "Av. do Batel, 1190 - Batel", "stop_lat": -25.441566099155, "stop_lon": -49.285130978769, "stop_sequence": 22}, {"stop_id": "32761", "stop_name": "Rua Alferes Ângelo Sampaio, 1177 - Batel", "stop_lat": -25.442824460903, "stop_lon": -49.282907143517, "stop_sequence": 23}, {"stop_id": "32762", "stop_name": "Rua Alferes Ângelo Sampaio, 615 - Água Verde", "stop_lat": -25.446854383581, "stop_lon": -49.280945364418, "stop_sequence": 24}, {"stop_id": "32763", "stop_name": "Rua Alferes Ângelo Sampaio, 262 - Água Verde", "stop_lat": -25.44981, "stop_lon": -49.27953, "stop_sequence": 25}, {"stop_id": "88506", "stop_name": "R. Alferes Ângelo Sampaio, 183", "stop_lat": -25.45154101422, "stop_lon": -49.278711198289, "stop_sequence": 26}, {"stop_id": "32765", "stop_name": "Rua Silveira Neto, 349 - Água Verde", "stop_lat": -25.45434, "stop_lon": -49.27595, "stop_sequence": 27}, {"stop_id": "32766", "stop_name": "R. Silveira Neto, 686 - Água Verde", "stop_lat": -25.45555, "stop_lon": -49.27243, "stop_sequence": 28}, {"stop_id": "32767", "stop_name": "Rua Conselheiro Dantas, 1206 - Rebouças", "stop_lat": -25.45387, "stop_lon": -49.26991, "stop_sequence": 29}, {"stop_id": "32768", "stop_name": "Rua Conselheiro Dantas, 761 - Rebouças", "stop_lat": -25.45201, "stop_lon": -49.26525, "stop_sequence": 30}, {"stop_id": "29134", "stop_name": "Rua Conselheiro Dantas, 356 - Prado Velho", "stop_lat": -25.45057968767, "stop_lon": -49.26169953373, "stop_sequence": 31}, {"stop_id": "31743", "stop_name": "Rua Rockefeller, 1424 - Prado Velho", "stop_lat": -25.450261873841, "stop_lon": -49.259898163195, "stop_sequence": 32}, {"stop_id": "31745", "stop_name": "Rua Comendador Roseira, 260 - Prado Velho", "stop_lat": -25.45043, "stop_lon": -49.25676, "stop_sequence": 33}, {"stop_id": "31748", "stop_name": "Rua Iapó, 1158 - Prado Velho", "stop_lat": -25.450967928953, "stop_lon": -49.254071720238, "stop_sequence": 34}, {"stop_id": "31750", "stop_name": "Rua Imaculada Conceição, 1477 - Prado Velho", "stop_lat": -25.45398906219, "stop_lon": -49.252730991402, "stop_sequence": 35}, {"stop_id": "88561", "stop_name": "R. Imac. Conceição, 1832 - Rebouças", "stop_lat": -25.456725876691, "stop_lon": -49.252051899227, "stop_sequence": 36}]}