{"stops": [{"stop_id": "29777", "stop_name": "Av. Copaíba, 125 - Bairro Alto", "stop_lat": -25.402768177215, "stop_lon": -49.213087317791, "stop_sequence": 1}, {"stop_id": "28053", "stop_name": "Terminal Cabral - 211 - Colina Verde", "stop_lat": -25.406505040492, "stop_lon": -49.252454393508, "stop_sequence": 1}, {"stop_id": "29775", "stop_name": "Av. Copaíba, 237 - Bairro Alto", "stop_lat": -25.40326, "stop_lon": -49.21505, "stop_sequence": 2}, {"stop_id": "28997", "stop_name": "Av. Munhoz da Rocha, 1067 - Juveve", "stop_lat": -25.40751903007, "stop_lon": -49.249488533077, "stop_sequence": 2}, {"stop_id": "29771", "stop_name": "Av. Caviúna, 243 - Bairro Alto", "stop_lat": -25.40521, "stop_lon": -49.21773, "stop_sequence": 3}, {"stop_id": "28999", "stop_name": "Av. Munhoz da Rocha, 1361 - Juveve", "stop_lat": -25.405733016782, "stop_lon": -49.247328309193, "stop_sequence": 3}, {"stop_id": "29919", "stop_name": "Estação Tubo Fagundes Varela.", "stop_lat": -25.41002524492, "stop_lon": -49.220401669451, "stop_sequence": 4}, {"stop_id": "29000", "stop_name": "Av. Prefeito Erasto Gaertner, 193 - Bacacheri", "stop_lat": -25.404285485932, "stop_lon": -49.244288658895, "stop_sequence": 4}, {"stop_id": "29901", "stop_name": "Rua Mercedes Seiler Rocha, 423 - Bacacheri", "stop_lat": -25.409082105456, "stop_lon": -49.222138787003, "stop_sequence": 5}, {"stop_id": "29750", "stop_name": "Rua Estados Unidos, 701 - Bacacheri", "stop_lat": -25.406152399191, "stop_lon": -49.241617317791, "stop_sequence": 5}, {"stop_id": "29768", "stop_name": "Rua Prof. Raul Pinheiro Machado, 57 - Bacacheri", "stop_lat": -25.409139097623, "stop_lon": -49.224295860119, "stop_sequence": 6}, {"stop_id": "29751", "stop_name": "Rua Estados Unidos, 421 - Bacacheri", "stop_lat": -25.407736959452, "stop_lon": -49.240344256449, "stop_sequence": 6}, {"stop_id": "29766", "stop_name": "Rua Paulo Ildefonso Assumpção, 517 - Bacacheri", "stop_lat": -25.41052, "stop_lon": -49.22672, "stop_sequence": 7}, {"stop_id": "29752", "stop_name": "Rua Estados Unidos, 184 - Bacacheri", "stop_lat": -25.409790309051, "stop_lon": -49.238721224537, "stop_sequence": 7}, {"stop_id": "29764", "stop_name": "Rua Paulo Ildefonso Assumpção, 144 - Bacacheri", "stop_lat": -25.41146, "stop_lon": -49.22898, "stop_sequence": 8}, {"stop_id": "29755", "stop_name": "Rua Cel. Temistocles de Souza Brasil, 114-280 - Jardim Social", "stop_lat": -25.410738353962, "stop_lon": -49.235409943447, "stop_sequence": 8}, {"stop_id": "29762", "stop_name": "Rua Paulo Ildefonso Assumpção, 25 - Bacacheri", "stop_lat": -25.412502087695, "stop_lon": -49.231483906746, "stop_sequence": 9}, {"stop_id": "29753", "stop_name": "Travessa Lange de Morretes, 104 - Jardim Social", "stop_lat": -25.411192990457, "stop_lon": -49.232854635582, "stop_sequence": 9}, {"stop_id": "29754", "stop_name": "Rua Fagundes Varela, 991 - Jardim Social", "stop_lat": -25.414106675422, "stop_lon": -49.231597930059, "stop_sequence": 10}, {"stop_id": "29761", "stop_name": "Rua Paulo Ildefonso Assumpção, 24 - Bacacheri", "stop_lat": -25.412546984523, "stop_lon": -49.231264402447, "stop_sequence": 10}, {"stop_id": "48982", "stop_name": "R. México, 1367 - Bacacheri", "stop_lat": -25.41293201293, "stop_lon": -49.234094917774, "stop_sequence": 11}, {"stop_id": "29763", "stop_name": "Rua Paulo Ildefonso Assumpção, 143 - Bacacheri", "stop_lat": -25.41162, "stop_lon": -49.22907, "stop_sequence": 11}, {"stop_id": "29756", "stop_name": "Rua México, 1455 - Bacacheri", "stop_lat": -25.410531746735, "stop_lon": -49.23596594841, "stop_sequence": 12}, {"stop_id": "29765", "stop_name": "Rua Paulo Ildefonso Assumpção, 516 - Bacacheri", "stop_lat": -25.41055788639, "stop_lon": -49.226500495701, "stop_sequence": 12}, {"stop_id": "29757", "stop_name": "Rua México, 833 - Bacacheri", "stop_lat": -25.408816674837, "stop_lon": -49.237335626984, "stop_sequence": 13}, {"stop_id": "31930", "stop_name": "R. Fagundes Varela, 2101 - Jardim Social", "stop_lat": -25.410203104908, "stop_lon": -49.221751720851, "stop_sequence": 13}, {"stop_id": "29758", "stop_name": "Rua México, 590 - Bacacheri", "stop_lat": -25.4071, "stop_lon": -49.23879, "stop_sequence": 14}, {"stop_id": "29770", "stop_name": "Estação Tubo Fagundes Varela", "stop_lat": -25.410061814774, "stop_lon": -49.220198655433, "stop_sequence": 14}, {"stop_id": "29759", "stop_name": "Rua México, 679 - Bacacheri", "stop_lat": -25.405101852055, "stop_lon": -49.240317580357, "stop_sequence": 15}, {"stop_id": "29769", "stop_name": "Rodovia BR476, Pista Lateral - Bairro Alto", "stop_lat": -25.40725, "stop_lon": -49.21873, "stop_sequence": 15}, {"stop_id": "29760", "stop_name": "Rua México, 429 - Bacacheri", "stop_lat": -25.403133679583, "stop_lon": -49.241859300594, "stop_sequence": 16}, {"stop_id": "29772", "stop_name": "Av. Caviúna, 244 - Bairro Alto", "stop_lat": -25.40514, "stop_lon": -49.2176, "stop_sequence": 16}, {"stop_id": "29008", "stop_name": "Rua Nicarágua, 239 - Bacacheri", "stop_lat": -25.40335942835, "stop_lon": -49.245174139881, "stop_sequence": 17}, {"stop_id": "29773", "stop_name": "Av. Copaíba, 415 - Bairro Alto", "stop_lat": -25.403761714526, "stop_lon": -49.21697288476, "stop_sequence": 17}, {"stop_id": "28998", "stop_name": "Av. Munhoz da Rocha, 1143 - Juveve", "stop_lat": -25.406155130757, "stop_lon": -49.247822419643, "stop_sequence": 18}, {"stop_id": "29776", "stop_name": "Av. Copaíba, 236 - Bairro Alto", "stop_lat": -25.40331, "stop_lon": -49.21503, "stop_sequence": 18}, {"stop_id": "28996", "stop_name": "Av. Munhoz da Rocha, 1067 - Juveve", "stop_lat": -25.40744876934, "stop_lon": -49.249701768694, "stop_sequence": 19}]}